id,name,iso3,iso2,phone_code,currency,currency_symbol,latitude,longitude,flag,timezone_name,timezone_utc,created_at,updated_at
1,Afghanistan,AFG,AF,93,AFN,؋,33.00000000,65.00000000,https://cdn.jsdelivr.net/gh/hampusborgos/country-flags@main/svg/af.svg,Asia/Kabul,UTC+04:30,2022-06-16 09:53:53+05:30,2022-07-07 10:47:28+05:30
2,Aland Islands,ALA,AX,358,EUR,€,60.11666700,19.90000000,https://cdn.jsdelivr.net/gh/hampusborgos/country-flags@main/svg/ax.svg,Europe/Mariehamn,UTC+02:00,2022-06-16 09:53:54+05:30,2022-07-07 10:47:28+05:30
3,Albania,ALB,AL,355,ALL,Lek,41.00000000,20.00000000,https://cdn.jsdelivr.net/gh/hampusborgos/country-flags@main/svg/al.svg,Europe/Tirane,UTC+01:00,2022-06-16 09:53:54+05:30,2022-07-07 10:47:28+05:30
4,Algeria,DZA,DZ,213,DZD,دج,28.00000000,3.00000000,https://cdn.jsdelivr.net/gh/hampusborgos/country-flags@main/svg/dz.svg,Africa/Algiers,UTC+01:00,2022-06-16 09:53:54+05:30,2022-07-07 10:47:28+05:30
5,American Samoa,ASM,AS,1,USD,$,-14.33333333,-99.99999999,https://cdn.jsdelivr.net/gh/hampusborgos/country-flags@main/svg/as.svg,Pacific/Pago_Pago,UTC-11:00,2022-06-16 09:53:54+05:30,2022-07-07 10:47:28+05:30
6,Andorra,AND,AD,376,EUR,€,42.50000000,1.50000000,https://cdn.jsdelivr.net/gh/hampusborgos/country-flags@main/svg/ad.svg,Europe/Andorra,UTC+01:00,2022-06-16 09:53:54+05:30,2022-07-07 10:47:28+05:30
7,Angola,AGO,AO,244,AOA,Kz,-12.50000000,18.50000000,https://cdn.jsdelivr.net/gh/hampusborgos/country-flags@main/svg/ao.svg,Africa/Luanda,UTC+01:00,2022-06-16 09:53:54+05:30,2022-07-07 10:47:28+05:30
8,Anguilla,AIA,AI,1,XCD,EC$,18.25000000,-63.16666666,https://cdn.jsdelivr.net/gh/hampusborgos/country-flags@main/svg/ai.svg,America/Anguilla,UTC-04:00,2022-06-16 09:53:54+05:30,2022-07-07 10:47:28+05:30
9,Antarctica,ATA,AQ,672,AQD,$,-74.65000000,4.48000000,https://cdn.jsdelivr.net/gh/hampusborgos/country-flags@main/svg/aq.svg,Antarctica/Casey,UTC+11:00,2022-06-16 09:53:54+05:30,2022-07-07 10:47:28+05:30
10,Antigua And Barbuda,ATG,AG,1,XCD,EC$,17.05000000,-61.80000000,https://cdn.jsdelivr.net/gh/hampusborgos/country-flags@main/svg/ag.svg,America/Antigua,UTC-04:00,2022-06-16 09:53:54+05:30,2022-07-07 10:47:28+05:30
11,Argentina,ARG,AR,54,ARS,$,-34.00000000,-64.00000000,https://cdn.jsdelivr.net/gh/hampusborgos/country-flags@main/svg/ar.svg,America/Argentina/Buenos_Aires,UTC-03:00,2022-06-16 09:53:54+05:30,2022-07-07 10:47:28+05:30
12,Armenia,ARM,AM,374,AMD,Դ,40.00000000,45.00000000,https://cdn.jsdelivr.net/gh/hampusborgos/country-flags@main/svg/am.svg,Asia/Yerevan,UTC+04:00,2022-06-16 09:53:54+05:30,2022-07-07 10:47:28+05:30
13,Aruba,ABW,AW,297,AWG,ƒ,12.50000000,-69.96666666,https://cdn.jsdelivr.net/gh/hampusborgos/country-flags@main/svg/aw.svg,America/Aruba,UTC-04:00,2022-06-16 09:53:54+05:30,2022-07-07 10:47:28+05:30
14,Australia,AUS,AU,61,AUD,$,-27.00000000,99.99999999,https://cdn.jsdelivr.net/gh/hampusborgos/country-flags@main/svg/au.svg,Antarctica/Macquarie,UTC+11:00,2022-06-16 09:53:54+05:30,2022-07-07 10:47:28+05:30
15,Austria,AUT,AT,43,EUR,€,47.33333333,13.33333333,https://cdn.jsdelivr.net/gh/hampusborgos/country-flags@main/svg/at.svg,Europe/Vienna,UTC+01:00,2022-06-16 09:53:54+05:30,2022-07-07 10:47:28+05:30
16,Azerbaijan,AZE,AZ,994,AZN,ман,40.50000000,47.50000000,https://cdn.jsdelivr.net/gh/hampusborgos/country-flags@main/svg/az.svg,Asia/Baku,UTC+04:00,2022-06-16 09:53:54+05:30,2022-07-07 10:47:28+05:30
17,The Bahamas,BHS,BS,1,BSD,B$,24.25000000,-76.00000000,https://cdn.jsdelivr.net/gh/hampusborgos/country-flags@main/svg/bs.svg,America/Nassau,UTC-05:00,2022-06-16 09:53:54+05:30,2022-07-07 10:47:30+05:30
18,Bahrain,BHR,BH,973,BHD,.د.ب,26.00000000,50.55000000,https://cdn.jsdelivr.net/gh/hampusborgos/country-flags@main/svg/bh.svg,Asia/Bahrain,UTC+03:00,2022-06-16 09:53:54+05:30,2022-07-07 10:47:28+05:30
19,Bangladesh,BGD,BD,880,BDT,৳,24.00000000,90.00000000,https://cdn.jsdelivr.net/gh/hampusborgos/country-flags@main/svg/bd.svg,Asia/Dhaka,UTC+06:00,2022-06-16 09:53:54+05:30,2022-07-07 10:47:28+05:30
20,Barbados,BRB,BB,1,BBD,$,13.16666666,-59.53333333,https://cdn.jsdelivr.net/gh/hampusborgos/country-flags@main/svg/bb.svg,America/Barbados,UTC-04:00,2022-06-16 09:53:54+05:30,2022-07-07 10:47:28+05:30
21,Belarus,BLR,BY,375,BYN,p.,53.00000000,28.00000000,https://cdn.jsdelivr.net/gh/hampusborgos/country-flags@main/svg/by.svg,Europe/Minsk,UTC+03:00,2022-06-16 09:53:54+05:30,2022-07-07 10:47:28+05:30
22,Belgium,BEL,BE,32,EUR,€,50.83333333,4.00000000,https://cdn.jsdelivr.net/gh/hampusborgos/country-flags@main/svg/be.svg,Europe/Brussels,UTC+01:00,2022-06-16 09:53:54+05:30,2022-07-07 10:47:28+05:30
23,Belize,BLZ,BZ,501,BZD,BZ$,17.25000000,-88.75000000,https://cdn.jsdelivr.net/gh/hampusborgos/country-flags@main/svg/bz.svg,America/Belize,UTC-06:00,2022-06-16 09:53:54+05:30,2022-07-07 10:47:28+05:30
24,Benin,BEN,BJ,229,XOF,CFA,9.50000000,2.25000000,https://cdn.jsdelivr.net/gh/hampusborgos/country-flags@main/svg/bj.svg,Africa/Porto-Novo,UTC+01:00,2022-06-16 09:53:54+05:30,2022-07-07 10:47:28+05:30
25,Bermuda,BMU,BM,1,BMD,$,32.33333333,-64.75000000,https://cdn.jsdelivr.net/gh/hampusborgos/country-flags@main/svg/bm.svg,Atlantic/Bermuda,UTC-04:00,2022-06-16 09:53:54+05:30,2022-07-07 10:47:28+05:30
26,Bhutan,BTN,BT,975,BTN,BTN,27.50000000,90.50000000,https://cdn.jsdelivr.net/gh/hampusborgos/country-flags@main/svg/bt.svg,Asia/Thimphu,UTC+06:00,2022-06-16 09:53:54+05:30,2022-07-07 10:47:28+05:30
27,Bolivia,BOL,BO,591,BOB,$b,-17.00000000,-65.00000000,https://cdn.jsdelivr.net/gh/hampusborgos/country-flags@main/svg/bo.svg,America/La_Paz,UTC-04:00,2022-06-16 09:53:54+05:30,2022-07-07 10:47:28+05:30
28,Bosnia and Herzegovina,BIH,BA,387,BAM,KM,44.00000000,18.00000000,https://cdn.jsdelivr.net/gh/hampusborgos/country-flags@main/svg/ba.svg,Europe/Sarajevo,UTC+01:00,2022-06-16 09:53:54+05:30,2022-07-07 10:47:28+05:30
29,Botswana,BWA,BW,267,BWP,P,-22.00000000,24.00000000,https://cdn.jsdelivr.net/gh/hampusborgos/country-flags@main/svg/bw.svg,Africa/Gaborone,UTC+02:00,2022-06-16 09:53:54+05:30,2022-07-07 10:47:28+05:30
30,Bouvet Island,BVT,BV,0055,NOK,kr,-54.43333333,3.40000000,https://cdn.jsdelivr.net/gh/hampusborgos/country-flags@main/svg/bv.svg,Europe/Oslo,UTC+01:00,2022-06-16 09:53:54+05:30,2022-07-07 10:47:28+05:30
31,Brazil,BRA,BR,55,BRL,R$,-10.00000000,-55.00000000,https://cdn.jsdelivr.net/gh/hampusborgos/country-flags@main/svg/br.svg,America/Araguaina,UTC-03:00,2022-06-16 09:53:54+05:30,2022-07-07 10:47:28+05:30
32,British Indian Ocean Territory,IOT,IO,246,USD,$,-6.00000000,71.50000000,https://cdn.jsdelivr.net/gh/hampusborgos/country-flags@main/svg/io.svg,Indian/Chagos,UTC+06:00,2022-06-16 09:53:54+05:30,2022-07-07 10:47:28+05:30
33,Brunei,BRN,BN,673,BND,$,4.50000000,99.99999999,https://cdn.jsdelivr.net/gh/hampusborgos/country-flags@main/svg/bn.svg,Asia/Brunei,UTC+08:00,2022-06-16 09:53:54+05:30,2022-07-07 10:47:28+05:30
34,Bulgaria,BGR,BG,359,BGN,лв,43.00000000,25.00000000,https://cdn.jsdelivr.net/gh/hampusborgos/country-flags@main/svg/bg.svg,Europe/Sofia,UTC+02:00,2022-06-16 09:53:54+05:30,2022-07-07 10:47:28+05:30
35,Burkina Faso,BFA,BF,226,XOF,CFA,13.00000000,-2.00000000,https://cdn.jsdelivr.net/gh/hampusborgos/country-flags@main/svg/bf.svg,Africa/Ouagadougou,UTC±00,2022-06-16 09:53:54+05:30,2022-07-07 10:47:28+05:30
36,Burundi,BDI,BI,257,BIF,FBu,-3.50000000,30.00000000,https://cdn.jsdelivr.net/gh/hampusborgos/country-flags@main/svg/bi.svg,Africa/Bujumbura,UTC+02:00,2022-06-16 09:53:54+05:30,2022-07-07 10:47:28+05:30
37,Cambodia,KHM,KH,855,KHR,៛,13.00000000,99.99999999,https://cdn.jsdelivr.net/gh/hampusborgos/country-flags@main/svg/kh.svg,Asia/Phnom_Penh,UTC+07:00,2022-06-16 09:53:54+05:30,2022-07-07 10:47:28+05:30
38,Cameroon,CMR,CM,237,XAF,XAF,6.00000000,12.00000000,https://cdn.jsdelivr.net/gh/hampusborgos/country-flags@main/svg/cm.svg,Africa/Douala,UTC+01:00,2022-06-16 09:53:54+05:30,2022-07-07 10:47:28+05:30
39,Canada,CAN,CA,1,CAD,$,60.00000000,-95.00000000,https://cdn.jsdelivr.net/gh/hampusborgos/country-flags@main/svg/ca.svg,America/Atikokan,UTC-05:00,2022-06-16 09:53:54+05:30,2022-07-07 10:47:28+05:30
40,Cape Verde,CPV,CV,238,CVE,CVE,16.00000000,-24.00000000,https://cdn.jsdelivr.net/gh/hampusborgos/country-flags@main/svg/cv.svg,Atlantic/Cape_Verde,UTC-01:00,2022-06-16 09:53:54+05:30,2022-07-07 10:47:28+05:30
41,Cayman Islands,CYM,KY,1,KYD,KYD,19.50000000,-80.50000000,https://cdn.jsdelivr.net/gh/hampusborgos/country-flags@main/svg/ky.svg,America/Cayman,UTC-05:00,2022-06-16 09:53:54+05:30,2022-07-07 10:47:28+05:30
42,Central African Republic,CAF,CF,236,XAF,FCFA,7.00000000,21.00000000,https://cdn.jsdelivr.net/gh/hampusborgos/country-flags@main/svg/cf.svg,Africa/Bangui,UTC+01:00,2022-06-16 09:53:54+05:30,2022-07-07 10:47:28+05:30
43,Chad,TCD,TD,235,XAF,FCFA,15.00000000,19.00000000,https://cdn.jsdelivr.net/gh/hampusborgos/country-flags@main/svg/td.svg,Africa/Ndjamena,UTC+01:00,2022-06-16 09:53:54+05:30,2022-07-07 10:47:28+05:30
44,Chile,CHL,CL,56,CLP,$,-30.00000000,-71.00000000,https://cdn.jsdelivr.net/gh/hampusborgos/country-flags@main/svg/cl.svg,America/Punta_Arenas,UTC-03:00,2022-06-16 09:53:54+05:30,2022-07-07 10:47:28+05:30
45,China,CHN,CN,86,CNY,¥,35.00000000,99.99999999,https://cdn.jsdelivr.net/gh/hampusborgos/country-flags@main/svg/cn.svg,Asia/Shanghai,UTC+08:00,2022-06-16 09:53:54+05:30,2022-07-07 10:47:28+05:30
46,Christmas Island,CXR,CX,61,AUD,AU$,-10.50000000,99.99999999,https://cdn.jsdelivr.net/gh/hampusborgos/country-flags@main/svg/cx.svg,Indian/Christmas,UTC+07:00,2022-06-16 09:53:54+05:30,2022-07-07 10:47:28+05:30
47,Cocos (Keeling) Islands,CCK,CC,61,AUD,AU$,-12.50000000,96.83333333,https://cdn.jsdelivr.net/gh/hampusborgos/country-flags@main/svg/cc.svg,Indian/Cocos,UTC+06:30,2022-06-16 09:53:54+05:30,2022-07-07 10:47:28+05:30
48,Colombia,COL,CO,57,COP,$,4.00000000,-72.00000000,https://cdn.jsdelivr.net/gh/hampusborgos/country-flags@main/svg/co.svg,America/Bogota,UTC-05:00,2022-06-16 09:53:54+05:30,2022-07-07 10:47:28+05:30
49,Comoros,COM,KM,269,KMF,CF,-12.16666666,44.25000000,https://cdn.jsdelivr.net/gh/hampusborgos/country-flags@main/svg/km.svg,Indian/Comoro,UTC+03:00,2022-06-16 09:53:54+05:30,2022-07-07 10:47:28+05:30
50,Congo,COG,CG,242,XAF,FC,-1.00000000,15.00000000,https://cdn.jsdelivr.net/gh/hampusborgos/country-flags@main/svg/cg.svg,Africa/Brazzaville,UTC+01:00,2022-06-16 09:53:54+05:30,2022-07-07 10:47:28+05:30
51,Democratic Republic of the Congo,COD,CD,243,CDF,FC,0.00000000,25.00000000,https://cdn.jsdelivr.net/gh/hampusborgos/country-flags@main/svg/cd.svg,Africa/Kinshasa,UTC+01:00,2022-06-16 09:53:54+05:30,2022-07-07 10:47:29+05:30
52,Cook Islands,COK,CK,682,NZD,NZ$,-21.23333333,-99.99999999,https://cdn.jsdelivr.net/gh/hampusborgos/country-flags@main/svg/ck.svg,Pacific/Rarotonga,UTC-10:00,2022-06-16 09:53:54+05:30,2022-07-07 10:47:28+05:30
53,Costa Rica,CRI,CR,506,CRC,₡,10.00000000,-84.00000000,https://cdn.jsdelivr.net/gh/hampusborgos/country-flags@main/svg/cr.svg,America/Costa_Rica,UTC-06:00,2022-06-16 09:53:54+05:30,2022-07-07 10:47:28+05:30
54,Cote D'Ivoire (Ivory Coast),CIV,CI,225,XOF,CFA,8.00000000,-5.00000000,https://cdn.jsdelivr.net/gh/hampusborgos/country-flags@main/svg/ci.svg,Africa/Abidjan,UTC±00,2022-06-16 09:53:54+05:30,2022-07-07 10:47:28+05:30
55,Croatia,HRV,HR,385,HRK,kn,45.16666666,15.50000000,https://cdn.jsdelivr.net/gh/hampusborgos/country-flags@main/svg/hr.svg,Europe/Zagreb,UTC+01:00,2022-06-16 09:53:54+05:30,2022-07-07 10:47:28+05:30
56,Cuba,CUB,CU,53,CUP,₱,21.50000000,-80.00000000,https://cdn.jsdelivr.net/gh/hampusborgos/country-flags@main/svg/cu.svg,America/Havana,UTC-05:00,2022-06-16 09:53:54+05:30,2022-07-07 10:47:28+05:30
57,Cyprus,CYP,CY,357,EUR,€,35.00000000,33.00000000,https://cdn.jsdelivr.net/gh/hampusborgos/country-flags@main/svg/cy.svg,Asia/Famagusta,UTC+02:00,2022-06-16 09:53:54+05:30,2022-07-07 10:47:28+05:30
58,Czech Republic,CZE,CZ,420,CZK,Kč,49.75000000,15.50000000,https://cdn.jsdelivr.net/gh/hampusborgos/country-flags@main/svg/cz.svg,Europe/Prague,UTC+01:00,2022-06-16 09:53:54+05:30,2022-07-07 10:47:28+05:30
59,Denmark,DNK,DK,45,DKK,kr,56.00000000,10.00000000,https://cdn.jsdelivr.net/gh/hampusborgos/country-flags@main/svg/dk.svg,Europe/Copenhagen,UTC+01:00,2022-06-16 09:53:54+05:30,2022-07-07 10:47:29+05:30
60,Djibouti,DJI,DJ,253,DJF,Fdj,11.50000000,43.00000000,https://cdn.jsdelivr.net/gh/hampusborgos/country-flags@main/svg/dj.svg,Africa/Djibouti,UTC+03:00,2022-06-16 09:53:54+05:30,2022-07-07 10:47:29+05:30
61,Dominica,DMA,DM,1,XCD,EC$,15.41666666,-61.33333333,https://cdn.jsdelivr.net/gh/hampusborgos/country-flags@main/svg/dm.svg,America/Dominica,UTC-04:00,2022-06-16 09:53:54+05:30,2022-07-07 10:47:29+05:30
62,Dominican Republic,DOM,DO,1,DOP,RD$,19.00000000,-70.66666666,https://cdn.jsdelivr.net/gh/hampusborgos/country-flags@main/svg/do.svg,America/Santo_Domingo,UTC-04:00,2022-06-16 09:53:54+05:30,2022-07-07 10:47:29+05:30
63,East Timor,TLS,TL,670,USD,$,-8.83333333,99.99999999,https://cdn.jsdelivr.net/gh/hampusborgos/country-flags@main/svg/tl.svg,Asia/Dili,UTC+09:00,2022-06-16 09:53:54+05:30,2022-07-07 10:47:29+05:30
64,Ecuador,ECU,EC,593,USD,$,-2.00000000,-77.50000000,https://cdn.jsdelivr.net/gh/hampusborgos/country-flags@main/svg/ec.svg,America/Guayaquil,UTC-05:00,2022-06-16 09:53:54+05:30,2022-07-07 10:47:29+05:30
65,Egypt,EGY,EG,20,EGP,£,27.00000000,30.00000000,https://cdn.jsdelivr.net/gh/hampusborgos/country-flags@main/svg/eg.svg,Africa/Cairo,UTC+02:00,2022-06-16 09:53:54+05:30,2022-07-07 10:47:29+05:30
66,El Salvador,SLV,SV,503,USD,$,13.83333333,-88.91666666,https://cdn.jsdelivr.net/gh/hampusborgos/country-flags@main/svg/sv.svg,America/El_Salvador,UTC-06:00,2022-06-16 09:53:54+05:30,2022-07-07 10:47:29+05:30
67,Equatorial Guinea,GNQ,GQ,240,XAF,XAF,2.00000000,10.00000000,https://cdn.jsdelivr.net/gh/hampusborgos/country-flags@main/svg/gq.svg,Africa/Malabo,UTC+01:00,2022-06-16 09:53:54+05:30,2022-07-07 10:47:29+05:30
68,Eritrea,ERI,ER,291,ERN,Nfk,15.00000000,39.00000000,https://cdn.jsdelivr.net/gh/hampusborgos/country-flags@main/svg/er.svg,Africa/Asmara,UTC+03:00,2022-06-16 09:53:54+05:30,2022-07-07 10:47:29+05:30
69,Estonia,EST,EE,372,EUR,kr,59.00000000,26.00000000,https://cdn.jsdelivr.net/gh/hampusborgos/country-flags@main/svg/ee.svg,Europe/Tallinn,UTC+02:00,2022-06-16 09:53:54+05:30,2022-07-07 10:47:29+05:30
70,Ethiopia,ETH,ET,251,ETB,Br,8.00000000,38.00000000,https://cdn.jsdelivr.net/gh/hampusborgos/country-flags@main/svg/et.svg,Africa/Addis_Ababa,UTC+03:00,2022-06-16 09:53:54+05:30,2022-07-07 10:47:29+05:30
71,Falkland Islands,FLK,FK,500,FKP,£,-51.75000000,-59.00000000,https://cdn.jsdelivr.net/gh/hampusborgos/country-flags@main/svg/fk.svg,Atlantic/Stanley,UTC-03:00,2022-06-16 09:53:54+05:30,2022-07-07 10:47:29+05:30
72,Faroe Islands,FRO,FO,298,DKK,kr,62.00000000,-7.00000000,https://cdn.jsdelivr.net/gh/hampusborgos/country-flags@main/svg/fo.svg,Atlantic/Faroe,UTC±00,2022-06-16 09:53:54+05:30,2022-07-07 10:47:29+05:30
73,Fiji Islands,FJI,FJ,679,FJD,FJ$,-18.00000000,99.99999999,https://cdn.jsdelivr.net/gh/hampusborgos/country-flags@main/svg/fj.svg,Pacific/Fiji,UTC+12:00,2022-06-16 09:53:54+05:30,2022-07-07 10:47:29+05:30
74,Finland,FIN,FI,358,EUR,€,64.00000000,26.00000000,https://cdn.jsdelivr.net/gh/hampusborgos/country-flags@main/svg/fi.svg,Europe/Helsinki,UTC+02:00,2022-06-16 09:53:54+05:30,2022-07-07 10:47:29+05:30
75,France,FRA,FR,33,EUR,€,46.00000000,2.00000000,https://cdn.jsdelivr.net/gh/hampusborgos/country-flags@main/svg/fr.svg,Europe/Paris,UTC+01:00,2022-06-16 09:53:54+05:30,2022-07-07 10:47:29+05:30
76,French Guiana,GUF,GF,594,EUR,€,4.00000000,-53.00000000,https://cdn.jsdelivr.net/gh/hampusborgos/country-flags@main/svg/gf.svg,America/Cayenne,UTC-03:00,2022-06-16 09:53:54+05:30,2022-07-07 10:47:29+05:30
77,French Polynesia,PYF,PF,689,XPF,F,-15.00000000,-99.99999999,https://cdn.jsdelivr.net/gh/hampusborgos/country-flags@main/svg/pf.svg,Pacific/Gambier,UTC-09:00,2022-06-16 09:53:54+05:30,2022-07-07 10:47:29+05:30
78,French Southern Territories,ATF,TF,262,EUR,€,-49.25000000,69.16700000,https://cdn.jsdelivr.net/gh/hampusborgos/country-flags@main/svg/tf.svg,Indian/Kerguelen,UTC+05:00,2022-06-16 09:53:54+05:30,2022-07-07 10:47:29+05:30
79,Gabon,GAB,GA,241,XAF,FCFA,-1.00000000,11.75000000,https://cdn.jsdelivr.net/gh/hampusborgos/country-flags@main/svg/ga.svg,Africa/Libreville,UTC+01:00,2022-06-16 09:53:54+05:30,2022-07-07 10:47:29+05:30
80,Gambia The,GMB,GM,220,GMD,GMD,13.46666666,-16.56666666,https://cdn.jsdelivr.net/gh/hampusborgos/country-flags@main/svg/gm.svg,Africa/Banjul,UTC±00,2022-06-16 09:53:54+05:30,2022-07-07 10:47:29+05:30
81,Georgia,GEO,GE,995,GEL,₾,42.00000000,43.50000000,https://cdn.jsdelivr.net/gh/hampusborgos/country-flags@main/svg/ge.svg,Asia/Tbilisi,UTC+04:00,2022-06-16 09:53:54+05:30,2022-07-07 10:47:29+05:30
82,Germany,DEU,DE,49,EUR,€,51.00000000,9.00000000,https://cdn.jsdelivr.net/gh/hampusborgos/country-flags@main/svg/de.svg,Europe/Berlin,UTC+01:00,2022-06-16 09:53:54+05:30,2022-07-07 10:47:29+05:30
83,Ghana,GHA,GH,233,GHS,¢,8.00000000,-2.00000000,https://cdn.jsdelivr.net/gh/hampusborgos/country-flags@main/svg/gh.svg,Africa/Accra,UTC±00,2022-06-16 09:53:54+05:30,2022-07-07 10:47:29+05:30
84,Gibraltar,GIB,GI,350,GIP,£,36.13333333,-5.35000000,https://cdn.jsdelivr.net/gh/hampusborgos/country-flags@main/svg/gi.svg,Europe/Gibraltar,UTC+01:00,2022-06-16 09:53:54+05:30,2022-07-07 10:47:29+05:30
85,Greece,GRC,GR,30,EUR,€,39.00000000,22.00000000,https://cdn.jsdelivr.net/gh/hampusborgos/country-flags@main/svg/gr.svg,Europe/Athens,UTC+02:00,2022-06-16 09:53:54+05:30,2022-07-07 10:47:29+05:30
86,Greenland,GRL,GL,299,DKK,kr,72.00000000,-40.00000000,https://cdn.jsdelivr.net/gh/hampusborgos/country-flags@main/svg/gl.svg,America/Danmarkshavn,UTC±00,2022-06-16 09:53:54+05:30,2022-07-07 10:47:29+05:30
87,Grenada,GRD,GD,1,XCD,EC$,12.11666666,-61.66666666,https://cdn.jsdelivr.net/gh/hampusborgos/country-flags@main/svg/gd.svg,America/Grenada,UTC-04:00,2022-06-16 09:53:54+05:30,2022-07-07 10:47:29+05:30
88,Guadeloupe,GLP,GP,590,EUR,€,16.25000000,-61.58333300,https://cdn.jsdelivr.net/gh/hampusborgos/country-flags@main/svg/gp.svg,America/Guadeloupe,UTC-04:00,2022-06-16 09:53:54+05:30,2022-07-07 10:47:29+05:30
89,Guam,GUM,GU,1,USD,$,13.46666666,99.99999999,https://cdn.jsdelivr.net/gh/hampusborgos/country-flags@main/svg/gu.svg,Pacific/Guam,UTC+10:00,2022-06-16 09:53:54+05:30,2022-07-07 10:47:29+05:30
90,Guatemala,GTM,GT,502,GTQ,Q,15.50000000,-90.25000000,https://cdn.jsdelivr.net/gh/hampusborgos/country-flags@main/svg/gt.svg,America/Guatemala,UTC-06:00,2022-06-16 09:53:54+05:30,2022-07-07 10:47:29+05:30
91,Guernsey and Alderney,GGY,GG,44,GBP,£,49.46666666,-2.58333333,https://cdn.jsdelivr.net/gh/hampusborgos/country-flags@main/svg/gg.svg,Europe/Guernsey,UTC±00,2022-06-16 09:53:54+05:30,2022-07-07 10:47:29+05:30
92,Guinea,GIN,GN,224,GNF,GFr,11.00000000,-10.00000000,https://cdn.jsdelivr.net/gh/hampusborgos/country-flags@main/svg/gn.svg,Africa/Conakry,UTC±00,2022-06-16 09:53:54+05:30,2022-07-07 10:47:29+05:30
93,Guinea-Bissau,GNB,GW,245,XOF,CFA,12.00000000,-15.00000000,https://cdn.jsdelivr.net/gh/hampusborgos/country-flags@main/svg/gw.svg,Africa/Bissau,UTC±00,2022-06-16 09:53:54+05:30,2022-07-07 10:47:29+05:30
94,Guyana,GUY,GY,592,GYD,$,5.00000000,-59.00000000,https://cdn.jsdelivr.net/gh/hampusborgos/country-flags@main/svg/gy.svg,America/Guyana,UTC-04:00,2022-06-16 09:53:54+05:30,2022-07-07 10:47:29+05:30
95,Haiti,HTI,HT,509,HTG,HTG,19.00000000,-72.41666666,https://cdn.jsdelivr.net/gh/hampusborgos/country-flags@main/svg/ht.svg,America/Port-au-Prince,UTC-05:00,2022-06-16 09:53:54+05:30,2022-07-07 10:47:29+05:30
96,Heard Island and McDonald Islands,HMD,HM,672,AUD,AU$,-53.10000000,72.51666666,https://cdn.jsdelivr.net/gh/hampusborgos/country-flags@main/svg/hm.svg,Indian/Kerguelen,UTC+05:00,2022-06-16 09:53:54+05:30,2022-07-07 10:47:29+05:30
97,Honduras,HND,HN,504,HNL,L,15.00000000,-86.50000000,https://cdn.jsdelivr.net/gh/hampusborgos/country-flags@main/svg/hn.svg,America/Tegucigalpa,UTC-06:00,2022-06-16 09:53:54+05:30,2022-07-07 10:47:29+05:30
98,Hong Kong S.A.R.,HKG,HK,852,HKD,HK$,22.25000000,99.99999999,https://cdn.jsdelivr.net/gh/hampusborgos/country-flags@main/svg/hk.svg,Asia/Hong_Kong,UTC+08:00,2022-06-16 09:53:54+05:30,2022-07-07 10:47:29+05:30
99,Hungary,HUN,HU,36,HUF,Ft,47.00000000,20.00000000,https://cdn.jsdelivr.net/gh/hampusborgos/country-flags@main/svg/hu.svg,Europe/Budapest,UTC+01:00,2022-06-16 09:53:54+05:30,2022-07-07 10:47:29+05:30
100,Iceland,ISL,IS,354,ISK,kr,65.00000000,-18.00000000,https://cdn.jsdelivr.net/gh/hampusborgos/country-flags@main/svg/is.svg,Atlantic/Reykjavik,UTC±00,2022-06-16 09:53:54+05:30,2022-07-07 10:47:29+05:30
101,India,IND,IN,91,INR,₹,20.00000000,77.00000000,https://cdn.jsdelivr.net/gh/hampusborgos/country-flags@main/svg/in.svg,Asia/Kolkata,UTC+05:30,2022-06-16 09:53:54+05:30,2022-07-07 10:47:29+05:30
102,Indonesia,IDN,ID,62,IDR,Rp,-5.00000000,99.99999999,https://cdn.jsdelivr.net/gh/hampusborgos/country-flags@main/svg/id.svg,Asia/Jakarta,UTC+07:00,2022-06-16 09:53:54+05:30,2022-07-07 10:47:29+05:30
103,Iran,IRN,IR,98,IRR,﷼,32.00000000,53.00000000,https://cdn.jsdelivr.net/gh/hampusborgos/country-flags@main/svg/ir.svg,Asia/Tehran,UTC+03:30,2022-06-16 09:53:54+05:30,2022-07-07 10:47:29+05:30
104,Iraq,IRQ,IQ,964,IQD,ع.د,33.00000000,44.00000000,https://cdn.jsdelivr.net/gh/hampusborgos/country-flags@main/svg/iq.svg,Asia/Baghdad,UTC+03:00,2022-06-16 09:53:54+05:30,2022-07-07 10:47:29+05:30
105,Ireland,IRL,IE,353,EUR,€,53.00000000,-8.00000000,https://cdn.jsdelivr.net/gh/hampusborgos/country-flags@main/svg/ie.svg,Europe/Dublin,UTC±00,2022-06-16 09:53:54+05:30,2022-07-07 10:47:29+05:30
106,Israel,ISR,IL,972,ILS,₪,31.50000000,34.75000000,https://cdn.jsdelivr.net/gh/hampusborgos/country-flags@main/svg/il.svg,Asia/Jerusalem,UTC+02:00,2022-06-16 09:53:54+05:30,2022-07-07 10:47:29+05:30
107,Italy,ITA,IT,39,EUR,€,42.83333333,12.83333333,https://cdn.jsdelivr.net/gh/hampusborgos/country-flags@main/svg/it.svg,Europe/Rome,UTC+01:00,2022-06-16 09:53:54+05:30,2022-07-07 10:47:29+05:30
108,Jamaica,JAM,JM,1,JMD,J$,18.25000000,-77.50000000,https://cdn.jsdelivr.net/gh/hampusborgos/country-flags@main/svg/jm.svg,America/Jamaica,UTC-05:00,2022-06-16 09:53:54+05:30,2022-07-07 10:47:29+05:30
109,Japan,JPN,JP,81,JPY,¥,36.00000000,99.99999999,https://cdn.jsdelivr.net/gh/hampusborgos/country-flags@main/svg/jp.svg,Asia/Tokyo,UTC+09:00,2022-06-16 09:53:54+05:30,2022-07-07 10:47:29+05:30
110,Jersey,JEY,JE,44,GBP,£,49.25000000,-2.16666666,https://cdn.jsdelivr.net/gh/hampusborgos/country-flags@main/svg/je.svg,Europe/Jersey,UTC±00,2022-06-16 09:53:54+05:30,2022-07-07 10:47:29+05:30
111,Jordan,JOR,JO,962,JOD,JOD,31.00000000,36.00000000,https://cdn.jsdelivr.net/gh/hampusborgos/country-flags@main/svg/jo.svg,Asia/Amman,UTC+02:00,2022-06-16 09:53:54+05:30,2022-07-07 10:47:29+05:30
112,Kazakhstan,KAZ,KZ,7,KZT,лв,48.00000000,68.00000000,https://cdn.jsdelivr.net/gh/hampusborgos/country-flags@main/svg/kz.svg,Asia/Almaty,UTC+06:00,2022-06-16 09:53:54+05:30,2022-07-07 10:47:29+05:30
113,Kenya,KEN,KE,254,KES,KES,1.00000000,38.00000000,https://cdn.jsdelivr.net/gh/hampusborgos/country-flags@main/svg/ke.svg,Africa/Nairobi,UTC+03:00,2022-06-16 09:53:54+05:30,2022-07-07 10:47:29+05:30
114,Kiribati,KIR,KI,686,AUD,AU$,1.41666666,99.99999999,https://cdn.jsdelivr.net/gh/hampusborgos/country-flags@main/svg/ki.svg,Pacific/Enderbury,UTC+13:00,2022-06-16 09:53:54+05:30,2022-07-07 10:47:29+05:30
115,North Korea,PRK,KP,850,KPW,₩,40.00000000,99.99999999,https://cdn.jsdelivr.net/gh/hampusborgos/country-flags@main/svg/kp.svg,Asia/Pyongyang,UTC+09:00,2022-06-16 09:53:54+05:30,2022-07-07 10:47:29+05:30
116,South Korea,KOR,KR,82,KRW,₩,37.00000000,99.99999999,https://cdn.jsdelivr.net/gh/hampusborgos/country-flags@main/svg/kr.svg,Asia/Seoul,UTC+09:00,2022-06-16 09:53:54+05:30,2022-07-07 10:47:30+05:30
117,Kuwait,KWT,KW,965,KWD,د.ك,29.50000000,45.75000000,https://cdn.jsdelivr.net/gh/hampusborgos/country-flags@main/svg/kw.svg,Asia/Kuwait,UTC+03:00,2022-06-16 09:53:54+05:30,2022-07-07 10:47:29+05:30
118,Kyrgyzstan,KGZ,KG,996,KGS,лв,41.00000000,75.00000000,https://cdn.jsdelivr.net/gh/hampusborgos/country-flags@main/svg/kg.svg,Asia/Bishkek,UTC+06:00,2022-06-16 09:53:54+05:30,2022-07-07 10:47:29+05:30
119,Laos,LAO,LA,856,LAK,₭,18.00000000,99.99999999,https://cdn.jsdelivr.net/gh/hampusborgos/country-flags@main/svg/la.svg,Asia/Vientiane,UTC+07:00,2022-06-16 09:53:54+05:30,2022-07-07 10:47:29+05:30
120,Latvia,LVA,LV,371,EUR,Ls,57.00000000,25.00000000,https://cdn.jsdelivr.net/gh/hampusborgos/country-flags@main/svg/lv.svg,Europe/Riga,UTC+02:00,2022-06-16 09:53:54+05:30,2022-07-07 10:47:29+05:30
121,Lebanon,LBN,LB,961,LBP,£,33.83333333,35.83333333,https://cdn.jsdelivr.net/gh/hampusborgos/country-flags@main/svg/lb.svg,Asia/Beirut,UTC+02:00,2022-06-16 09:53:54+05:30,2022-07-07 10:47:29+05:30
122,Lesotho,LSO,LS,266,LSL,LSL,-29.50000000,28.50000000,https://cdn.jsdelivr.net/gh/hampusborgos/country-flags@main/svg/ls.svg,Africa/Maseru,UTC+02:00,2022-06-16 09:53:54+05:30,2022-07-07 10:47:29+05:30
123,Liberia,LBR,LR,231,LRD,$,6.50000000,-9.50000000,https://cdn.jsdelivr.net/gh/hampusborgos/country-flags@main/svg/lr.svg,Africa/Monrovia,UTC±00,2022-06-16 09:53:54+05:30,2022-07-07 10:47:29+05:30
124,Libya,LBY,LY,218,LYD,ل.د,25.00000000,17.00000000,https://cdn.jsdelivr.net/gh/hampusborgos/country-flags@main/svg/ly.svg,Africa/Tripoli,UTC+02:00,2022-06-16 09:53:54+05:30,2022-07-07 10:47:29+05:30
125,Liechtenstein,LIE,LI,423,CHF,CHF,47.26666666,9.53333333,https://cdn.jsdelivr.net/gh/hampusborgos/country-flags@main/svg/li.svg,Europe/Vaduz,UTC+01:00,2022-06-16 09:53:54+05:30,2022-07-07 10:47:29+05:30
126,Lithuania,LTU,LT,370,EUR,Lt,56.00000000,24.00000000,https://cdn.jsdelivr.net/gh/hampusborgos/country-flags@main/svg/lt.svg,Europe/Vilnius,UTC+02:00,2022-06-16 09:53:54+05:30,2022-07-07 10:47:29+05:30
127,Luxembourg,LUX,LU,352,EUR,€,49.75000000,6.16666666,https://cdn.jsdelivr.net/gh/hampusborgos/country-flags@main/svg/lu.svg,Europe/Luxembourg,UTC+01:00,2022-06-16 09:53:54+05:30,2022-07-07 10:47:29+05:30
128,Macau S.A.R.,MAC,MO,853,MOP,MOP$,22.16666666,99.99999999,https://cdn.jsdelivr.net/gh/hampusborgos/country-flags@main/svg/mo.svg,Asia/Macau,UTC+08:00,2022-06-16 09:53:54+05:30,2022-07-07 10:47:29+05:30
129,Macedonia,MKD,MK,389,MKD,ден,41.83333333,22.00000000,https://cdn.jsdelivr.net/gh/hampusborgos/country-flags@main/svg/mk.svg,Europe/Skopje,UTC+01:00,2022-06-16 09:53:54+05:30,2022-07-07 10:47:29+05:30
130,Madagascar,MDG,MG,261,MGA,Ar,-20.00000000,47.00000000,https://cdn.jsdelivr.net/gh/hampusborgos/country-flags@main/svg/mg.svg,Indian/Antananarivo,UTC+03:00,2022-06-16 09:53:54+05:30,2022-07-07 10:47:29+05:30
131,Malawi,MWI,MW,265,MWK,MK,-13.50000000,34.00000000,https://cdn.jsdelivr.net/gh/hampusborgos/country-flags@main/svg/mw.svg,Africa/Blantyre,UTC+02:00,2022-06-16 09:53:54+05:30,2022-07-07 10:47:29+05:30
132,Malaysia,MYS,MY,60,MYR,RM,2.50000000,99.99999999,https://cdn.jsdelivr.net/gh/hampusborgos/country-flags@main/svg/my.svg,Asia/Kuala_Lumpur,UTC+08:00,2022-06-16 09:53:54+05:30,2022-07-07 10:47:29+05:30
133,Maldives,MDV,MV,960,MVR,MVR,3.25000000,73.00000000,https://cdn.jsdelivr.net/gh/hampusborgos/country-flags@main/svg/mv.svg,Indian/Maldives,UTC+05:00,2022-06-16 09:53:54+05:30,2022-07-07 10:47:29+05:30
134,Mali,MLI,ML,223,XOF,CFA,17.00000000,-4.00000000,https://cdn.jsdelivr.net/gh/hampusborgos/country-flags@main/svg/ml.svg,Africa/Bamako,UTC±00,2022-06-16 09:53:54+05:30,2022-07-07 10:47:29+05:30
135,Malta,MLT,MT,356,EUR,€,35.83333333,14.58333333,https://cdn.jsdelivr.net/gh/hampusborgos/country-flags@main/svg/mt.svg,Europe/Malta,UTC+01:00,2022-06-16 09:53:54+05:30,2022-07-07 10:47:29+05:30
136,Isle of Man,IMN,IM,44,GBP,£,54.25000000,-4.50000000,https://cdn.jsdelivr.net/gh/hampusborgos/country-flags@main/svg/im.svg,Europe/Isle_of_Man,UTC±00,2022-06-16 09:53:54+05:30,2022-07-07 10:47:29+05:30
137,Marshall Islands,MHL,MH,692,USD,$,9.00000000,99.99999999,https://cdn.jsdelivr.net/gh/hampusborgos/country-flags@main/svg/mh.svg,Pacific/Kwajalein,UTC+12:00,2022-06-16 09:53:54+05:30,2022-07-07 10:47:29+05:30
138,Martinique,MTQ,MQ,596,EUR,€,14.66666700,-61.00000000,https://cdn.jsdelivr.net/gh/hampusborgos/country-flags@main/svg/mq.svg,America/Martinique,UTC-04:00,2022-06-16 09:53:54+05:30,2022-07-07 10:47:29+05:30
139,Mauritania,MRT,MR,222,MRO,UM,20.00000000,-12.00000000,https://cdn.jsdelivr.net/gh/hampusborgos/country-flags@main/svg/mr.svg,Africa/Nouakchott,UTC±00,2022-06-16 09:53:54+05:30,2022-07-07 10:47:29+05:30
140,Mauritius,MUS,MU,230,MUR,₨,-20.28333333,57.55000000,https://cdn.jsdelivr.net/gh/hampusborgos/country-flags@main/svg/mu.svg,Indian/Mauritius,UTC+04:00,2022-06-16 09:53:54+05:30,2022-07-07 10:47:29+05:30
141,Mayotte,MYT,YT,262,EUR,€,-12.83333333,45.16666666,https://cdn.jsdelivr.net/gh/hampusborgos/country-flags@main/svg/yt.svg,Indian/Mayotte,UTC+03:00,2022-06-16 09:53:54+05:30,2022-07-07 10:47:29+05:30
142,Mexico,MEX,MX,52,MXN,$,23.00000000,-99.99999999,https://cdn.jsdelivr.net/gh/hampusborgos/country-flags@main/svg/mx.svg,America/Bahia_Banderas,UTC-06:00,2022-06-16 09:53:54+05:30,2022-07-07 10:47:29+05:30
143,Micronesia,FSM,FM,691,USD,$,6.91666666,99.99999999,https://cdn.jsdelivr.net/gh/hampusborgos/country-flags@main/svg/fm.svg,Pacific/Chuuk,UTC+10:00,2022-06-16 09:53:54+05:30,2022-07-07 10:47:29+05:30
144,Moldova,MDA,MD,373,MDL,MDL,47.00000000,29.00000000,https://cdn.jsdelivr.net/gh/hampusborgos/country-flags@main/svg/md.svg,Europe/Chisinau,UTC+02:00,2022-06-16 09:53:54+05:30,2022-07-07 10:47:29+05:30
145,Monaco,MCO,MC,377,EUR,€,43.73333333,7.40000000,https://cdn.jsdelivr.net/gh/hampusborgos/country-flags@main/svg/mc.svg,Europe/Monaco,UTC+01:00,2022-06-16 09:53:54+05:30,2022-07-07 10:47:29+05:30
146,Mongolia,MNG,MN,976,MNT,₮,46.00000000,99.99999999,https://cdn.jsdelivr.net/gh/hampusborgos/country-flags@main/svg/mn.svg,Asia/Choibalsan,UTC+08:00,2022-06-16 09:53:54+05:30,2022-07-07 10:47:29+05:30
147,Montenegro,MNE,ME,382,EUR,€,42.50000000,19.30000000,https://cdn.jsdelivr.net/gh/hampusborgos/country-flags@main/svg/me.svg,Europe/Podgorica,UTC+01:00,2022-06-16 09:53:54+05:30,2022-07-07 10:47:29+05:30
148,Montserrat,MSR,MS,1,XCD,EC$,16.75000000,-62.20000000,https://cdn.jsdelivr.net/gh/hampusborgos/country-flags@main/svg/ms.svg,America/Montserrat,UTC-04:00,2022-06-16 09:53:54+05:30,2022-07-07 10:47:29+05:30
149,Morocco,MAR,MA,212,MAD,د.م.,32.00000000,-5.00000000,https://cdn.jsdelivr.net/gh/hampusborgos/country-flags@main/svg/ma.svg,Africa/Casablanca,UTC+01:00,2022-06-16 09:53:54+05:30,2022-07-07 10:47:29+05:30
150,Mozambique,MOZ,MZ,258,MZN,MT,-18.25000000,35.00000000,https://cdn.jsdelivr.net/gh/hampusborgos/country-flags@main/svg/mz.svg,Africa/Maputo,UTC+02:00,2022-06-16 09:53:54+05:30,2022-07-07 10:47:29+05:30
151,Myanmar,MMR,MM,95,MMK,K,22.00000000,98.00000000,https://cdn.jsdelivr.net/gh/hampusborgos/country-flags@main/svg/mm.svg,Asia/Yangon,UTC+06:30,2022-06-16 09:53:54+05:30,2022-07-07 10:47:29+05:30
152,Namibia,NAM,NA,264,NAD,$,-22.00000000,17.00000000,https://cdn.jsdelivr.net/gh/hampusborgos/country-flags@main/svg/na.svg,Africa/Windhoek,UTC+02:00,2022-06-16 09:53:54+05:30,2022-07-07 10:47:29+05:30
153,Nauru,NRU,NR,674,AUD,AU$,-0.53333333,99.99999999,https://cdn.jsdelivr.net/gh/hampusborgos/country-flags@main/svg/nr.svg,Pacific/Nauru,UTC+12:00,2022-06-16 09:53:54+05:30,2022-07-07 10:47:29+05:30
154,Nepal,NPL,NP,977,NPR,₨,28.00000000,84.00000000,https://cdn.jsdelivr.net/gh/hampusborgos/country-flags@main/svg/np.svg,Asia/Kathmandu,UTC+05:45,2022-06-16 09:53:54+05:30,2022-07-07 10:47:29+05:30
155,Caribbean Netherlands,BES,BQ,599,USD,$,12.15000000,-68.26666700,https://cdn.jsdelivr.net/gh/hampusborgos/country-flags@main/svg/bq.svg,America/Anguilla,UTC-04:00,2022-06-16 09:53:54+05:30,2022-07-07 10:47:28+05:30
156,Netherlands,NLD,NL,31,EUR,ƒ,52.50000000,5.75000000,https://cdn.jsdelivr.net/gh/hampusborgos/country-flags@main/svg/nl.svg,Europe/Amsterdam,UTC+01:00,2022-06-16 09:53:54+05:30,2022-07-07 10:47:29+05:30
157,New Caledonia,NCL,NC,687,XPF,F,-21.50000000,99.99999999,https://cdn.jsdelivr.net/gh/hampusborgos/country-flags@main/svg/nc.svg,Pacific/Noumea,UTC+11:00,2022-06-16 09:53:54+05:30,2022-07-07 10:47:29+05:30
158,New Zealand,NZL,NZ,64,NZD,$,-41.00000000,99.99999999,https://cdn.jsdelivr.net/gh/hampusborgos/country-flags@main/svg/nz.svg,Pacific/Auckland,UTC+13:00,2022-06-16 09:53:54+05:30,2022-07-07 10:47:29+05:30
159,Nicaragua,NIC,NI,505,NIO,C$,13.00000000,-85.00000000,https://cdn.jsdelivr.net/gh/hampusborgos/country-flags@main/svg/ni.svg,America/Managua,UTC-06:00,2022-06-16 09:53:54+05:30,2022-07-07 10:47:29+05:30
160,Niger,NER,NE,227,XOF,CFA,16.00000000,8.00000000,https://cdn.jsdelivr.net/gh/hampusborgos/country-flags@main/svg/ne.svg,Africa/Niamey,UTC+01:00,2022-06-16 09:53:54+05:30,2022-07-07 10:47:29+05:30
161,Nigeria,NGA,NG,234,NGN,₦,10.00000000,8.00000000,https://cdn.jsdelivr.net/gh/hampusborgos/country-flags@main/svg/ng.svg,Africa/Lagos,UTC+01:00,2022-06-16 09:53:54+05:30,2022-07-07 10:47:29+05:30
162,Niue,NIU,NU,683,NZD,NZ$,-19.03333333,-99.99999999,https://cdn.jsdelivr.net/gh/hampusborgos/country-flags@main/svg/nu.svg,Pacific/Niue,UTC-11:00,2022-06-16 09:53:54+05:30,2022-07-07 10:47:29+05:30
163,Norfolk Island,NFK,NF,672,AUD,AU$,-29.03333333,99.99999999,https://cdn.jsdelivr.net/gh/hampusborgos/country-flags@main/svg/nf.svg,Pacific/Norfolk,UTC+12:00,2022-06-16 09:53:54+05:30,2022-07-07 10:47:29+05:30
164,Northern Mariana Islands,MNP,MP,1,USD,$,15.20000000,99.99999999,https://cdn.jsdelivr.net/gh/hampusborgos/country-flags@main/svg/mp.svg,Pacific/Saipan,UTC+10:00,2022-06-16 09:53:54+05:30,2022-07-07 10:47:29+05:30
165,Norway,NOR,NO,47,NOK,kr,62.00000000,10.00000000,https://cdn.jsdelivr.net/gh/hampusborgos/country-flags@main/svg/no.svg,Europe/Oslo,UTC+01:00,2022-06-16 09:53:54+05:30,2022-07-07 10:47:29+05:30
166,Oman,OMN,OM,968,OMR,﷼,21.00000000,57.00000000,https://cdn.jsdelivr.net/gh/hampusborgos/country-flags@main/svg/om.svg,Asia/Muscat,UTC+04:00,2022-06-16 09:53:54+05:30,2022-07-07 10:47:29+05:30
167,Pakistan,PAK,PK,92,PKR,₨,30.00000000,70.00000000,https://cdn.jsdelivr.net/gh/hampusborgos/country-flags@main/svg/pk.svg,Asia/Karachi,UTC+05:00,2022-06-16 09:53:54+05:30,2022-07-07 10:47:29+05:30
168,Palau,PLW,PW,680,USD,$,7.50000000,99.99999999,https://cdn.jsdelivr.net/gh/hampusborgos/country-flags@main/svg/pw.svg,Pacific/Palau,UTC+09:00,2022-06-16 09:53:54+05:30,2022-07-07 10:47:29+05:30
169,Palestinian Territory Occupied,PSE,PS,970,ILS,₪,31.90000000,35.20000000,https://cdn.jsdelivr.net/gh/hampusborgos/country-flags@main/svg/ps.svg,Asia/Gaza,UTC+02:00,2022-06-16 09:53:54+05:30,2022-07-07 10:47:29+05:30
170,Panama,PAN,PA,507,PAB,B/.,9.00000000,-80.00000000,https://cdn.jsdelivr.net/gh/hampusborgos/country-flags@main/svg/pa.svg,America/Panama,UTC-05:00,2022-06-16 09:53:54+05:30,2022-07-07 10:47:29+05:30
171,Papua new Guinea,PNG,PG,675,PGK,PGK,-6.00000000,99.99999999,https://cdn.jsdelivr.net/gh/hampusborgos/country-flags@main/svg/pg.svg,Pacific/Bougainville,UTC+11:00,2022-06-16 09:53:54+05:30,2022-07-07 10:47:29+05:30
172,Paraguay,PRY,PY,595,PYG,Gs,-23.00000000,-58.00000000,https://cdn.jsdelivr.net/gh/hampusborgos/country-flags@main/svg/py.svg,America/Asuncion,UTC-03:00,2022-06-16 09:53:54+05:30,2022-07-07 10:47:29+05:30
173,Peru,PER,PE,51,PEN,S/.,-10.00000000,-76.00000000,https://cdn.jsdelivr.net/gh/hampusborgos/country-flags@main/svg/pe.svg,America/Lima,UTC-05:00,2022-06-16 09:53:54+05:30,2022-07-07 10:47:29+05:30
174,Philippines,PHL,PH,63,PHP,₱,13.00000000,99.99999999,https://cdn.jsdelivr.net/gh/hampusborgos/country-flags@main/svg/ph.svg,Asia/Manila,UTC+08:00,2022-06-16 09:53:55+05:30,2022-07-07 10:47:29+05:30
175,Pitcairn Island,PCN,PN,870,NZD,NZ$,-25.06666666,-99.99999999,https://cdn.jsdelivr.net/gh/hampusborgos/country-flags@main/svg/pn.svg,Pacific/Pitcairn,UTC-08:00,2022-06-16 09:53:55+05:30,2022-07-07 10:47:29+05:30
176,Poland,POL,PL,48,PLN,zł,52.00000000,20.00000000,https://cdn.jsdelivr.net/gh/hampusborgos/country-flags@main/svg/pl.svg,Europe/Warsaw,UTC+01:00,2022-06-16 09:53:55+05:30,2022-07-07 10:47:29+05:30
177,Portugal,PRT,PT,351,EUR,€,39.50000000,-8.00000000,https://cdn.jsdelivr.net/gh/hampusborgos/country-flags@main/svg/pt.svg,Atlantic/Azores,UTC-01:00,2022-06-16 09:53:55+05:30,2022-07-07 10:47:29+05:30
178,Puerto Rico,PRI,PR,1,USD,$,18.25000000,-66.50000000,https://cdn.jsdelivr.net/gh/hampusborgos/country-flags@main/svg/pr.svg,America/Puerto_Rico,UTC-04:00,2022-06-16 09:53:55+05:30,2022-07-07 10:47:29+05:30
179,Qatar,QAT,QA,974,QAR,﷼,25.50000000,51.25000000,https://cdn.jsdelivr.net/gh/hampusborgos/country-flags@main/svg/qa.svg,Asia/Qatar,UTC+03:00,2022-06-16 09:53:55+05:30,2022-07-07 10:47:29+05:30
180,Reunion,REU,RE,262,EUR,€,-21.15000000,55.50000000,https://cdn.jsdelivr.net/gh/hampusborgos/country-flags@main/svg/re.svg,Indian/Reunion,UTC+04:00,2022-06-16 09:53:55+05:30,2022-07-07 10:47:29+05:30
181,Romania,ROU,RO,40,RON,lei,46.00000000,25.00000000,https://cdn.jsdelivr.net/gh/hampusborgos/country-flags@main/svg/ro.svg,Europe/Bucharest,UTC+02:00,2022-06-16 09:53:55+05:30,2022-07-07 10:47:29+05:30
182,Russia,RUS,RU,7,RUB,руб,60.00000000,99.99999999,https://cdn.jsdelivr.net/gh/hampusborgos/country-flags@main/svg/ru.svg,Asia/Anadyr,UTC+12:00,2022-06-16 09:53:55+05:30,2022-07-07 10:47:29+05:30
183,Rwanda,RWA,RW,250,RWF,R₣,-2.00000000,30.00000000,https://cdn.jsdelivr.net/gh/hampusborgos/country-flags@main/svg/rw.svg,Africa/Kigali,UTC+02:00,2022-06-16 09:53:55+05:30,2022-07-07 10:47:29+05:30
184,Saint Helena,SHN,SH,290,SHP,£,-15.95000000,-5.70000000,https://cdn.jsdelivr.net/gh/hampusborgos/country-flags@main/svg/sh.svg,Atlantic/St_Helena,UTC±00,2022-06-16 09:53:55+05:30,2022-07-07 10:47:29+05:30
185,Saint Kitts And Nevis,KNA,KN,1,XCD,EC$,17.33333333,-62.75000000,https://cdn.jsdelivr.net/gh/hampusborgos/country-flags@main/svg/kn.svg,America/St_Kitts,UTC-04:00,2022-06-16 09:53:55+05:30,2022-07-07 10:47:29+05:30
186,Saint Lucia,LCA,LC,1,XCD,EC$,13.88333333,-60.96666666,https://cdn.jsdelivr.net/gh/hampusborgos/country-flags@main/svg/lc.svg,America/St_Lucia,UTC-04:00,2022-06-16 09:53:55+05:30,2022-07-07 10:47:29+05:30
187,Saint Pierre and Miquelon,SPM,PM,508,EUR,€,46.83333333,-56.33333333,https://cdn.jsdelivr.net/gh/hampusborgos/country-flags@main/svg/pm.svg,America/Miquelon,UTC-03:00,2022-06-16 09:53:55+05:30,2022-07-07 10:47:29+05:30
188,Saint Vincent And The Grenadines,VCT,VC,1,XCD,EC$,13.25000000,-61.20000000,https://cdn.jsdelivr.net/gh/hampusborgos/country-flags@main/svg/vc.svg,America/St_Vincent,UTC-04:00,2022-06-16 09:53:55+05:30,2022-07-07 10:47:29+05:30
189,Saint-Barthelemy,BLM,BL,590,EUR,€,18.50000000,-63.41666666,https://cdn.jsdelivr.net/gh/hampusborgos/country-flags@main/svg/bl.svg,America/St_Barthelemy,UTC-04:00,2022-06-16 09:53:55+05:30,2022-07-07 10:47:29+05:30
190,Saint-Martin (French part),MAF,MF,590,EUR,€,18.08333333,-63.95000000,https://cdn.jsdelivr.net/gh/hampusborgos/country-flags@main/svg/mf.svg,America/Marigot,UTC-04:00,2022-06-16 09:53:55+05:30,2022-07-07 10:47:29+05:30
191,Samoa,WSM,WS,685,WST,WS$,-13.58333333,-99.99999999,https://cdn.jsdelivr.net/gh/hampusborgos/country-flags@main/svg/ws.svg,Pacific/Apia,UTC+14:00,2022-06-16 09:53:55+05:30,2022-07-07 10:47:29+05:30
192,San Marino,SMR,SM,378,EUR,€,43.76666666,12.41666666,https://cdn.jsdelivr.net/gh/hampusborgos/country-flags@main/svg/sm.svg,Europe/San_Marino,UTC+01:00,2022-06-16 09:53:55+05:30,2022-07-07 10:47:29+05:30
193,Sao Tome and Principe,STP,ST,239,STD,Db,1.00000000,7.00000000,https://cdn.jsdelivr.net/gh/hampusborgos/country-flags@main/svg/st.svg,Africa/Sao_Tome,UTC±00,2022-06-16 09:53:55+05:30,2022-07-07 10:47:29+05:30
194,Saudi Arabia,SAU,SA,966,SAR,﷼,25.00000000,45.00000000,https://cdn.jsdelivr.net/gh/hampusborgos/country-flags@main/svg/sa.svg,Asia/Riyadh,UTC+03:00,2022-06-16 09:53:55+05:30,2022-07-07 10:47:29+05:30
195,Senegal,SEN,SN,221,XOF,CFA,14.00000000,-14.00000000,https://cdn.jsdelivr.net/gh/hampusborgos/country-flags@main/svg/sn.svg,Africa/Dakar,UTC±00,2022-06-16 09:53:55+05:30,2022-07-07 10:47:29+05:30
196,Serbia,SRB,RS,381,RSD,Дин.,44.00000000,21.00000000,https://cdn.jsdelivr.net/gh/hampusborgos/country-flags@main/svg/rs.svg,Europe/Belgrade,UTC+01:00,2022-06-16 09:53:55+05:30,2022-07-07 10:47:29+05:30
197,Seychelles,SYC,SC,248,SCR,₨,-4.58333333,55.66666666,https://cdn.jsdelivr.net/gh/hampusborgos/country-flags@main/svg/sc.svg,Indian/Mahe,UTC+04:00,2022-06-16 09:53:55+05:30,2022-07-07 10:47:29+05:30
198,Sierra Leone,SLE,SL,232,SLL,Le,8.50000000,-11.50000000,https://cdn.jsdelivr.net/gh/hampusborgos/country-flags@main/svg/sl.svg,Africa/Freetown,UTC±00,2022-06-16 09:53:55+05:30,2022-07-07 10:47:29+05:30
199,Singapore,SGP,SG,65,SGD,$,1.36666666,99.99999999,https://cdn.jsdelivr.net/gh/hampusborgos/country-flags@main/svg/sg.svg,Asia/Singapore,UTC+08:00,2022-06-16 09:53:55+05:30,2022-07-07 10:47:29+05:30
200,Slovakia,SVK,SK,421,EUR,€,48.66666666,19.50000000,https://cdn.jsdelivr.net/gh/hampusborgos/country-flags@main/svg/sk.svg,Europe/Bratislava,UTC+01:00,2022-06-16 09:53:55+05:30,2022-07-07 10:47:30+05:30
201,Slovenia,SVN,SI,386,EUR,€,46.11666666,14.81666666,https://cdn.jsdelivr.net/gh/hampusborgos/country-flags@main/svg/si.svg,Europe/Ljubljana,UTC+01:00,2022-06-16 09:53:55+05:30,2022-07-07 10:47:30+05:30
202,Solomon Islands,SLB,SB,677,SBD,$,-8.00000000,99.99999999,https://cdn.jsdelivr.net/gh/hampusborgos/country-flags@main/svg/sb.svg,Pacific/Guadalcanal,UTC+11:00,2022-06-16 09:53:55+05:30,2022-07-07 10:47:30+05:30
203,Somalia,SOM,SO,252,SOS,S,10.00000000,49.00000000,https://cdn.jsdelivr.net/gh/hampusborgos/country-flags@main/svg/so.svg,Africa/Mogadishu,UTC+03:00,2022-06-16 09:53:55+05:30,2022-07-07 10:47:30+05:30
204,South Africa,ZAF,ZA,27,ZAR,S,-29.00000000,24.00000000,https://cdn.jsdelivr.net/gh/hampusborgos/country-flags@main/svg/za.svg,Africa/Johannesburg,UTC+02:00,2022-06-16 09:53:55+05:30,2022-07-07 10:47:30+05:30
205,South Georgia,SGS,GS,500,GBP,£,-54.50000000,-37.00000000,https://cdn.jsdelivr.net/gh/hampusborgos/country-flags@main/svg/gs.svg,Atlantic/South_Georgia,UTC-02:00,2022-06-16 09:53:55+05:30,2022-07-07 10:47:30+05:30
206,South Sudan,SSD,SS,211,SSP,SSP,7.00000000,30.00000000,https://cdn.jsdelivr.net/gh/hampusborgos/country-flags@main/svg/ss.svg,Africa/Juba,UTC+03:00,2022-06-16 09:53:55+05:30,2022-07-07 10:47:30+05:30
207,Spain,ESP,ES,34,EUR,€,40.00000000,-4.00000000,https://cdn.jsdelivr.net/gh/hampusborgos/country-flags@main/svg/es.svg,Africa/Ceuta,UTC+01:00,2022-06-16 09:53:55+05:30,2022-07-07 10:47:30+05:30
208,Sri Lanka,LKA,LK,94,LKR,₨,7.00000000,81.00000000,https://cdn.jsdelivr.net/gh/hampusborgos/country-flags@main/svg/lk.svg,Asia/Colombo,UTC+05:30,2022-06-16 09:53:55+05:30,2022-07-07 10:47:30+05:30
209,Sudan,SDN,SD,249,SDG,SDG,15.00000000,30.00000000,https://cdn.jsdelivr.net/gh/hampusborgos/country-flags@main/svg/sd.svg,Africa/Khartoum,UTC+02:00,2022-06-16 09:53:55+05:30,2022-07-07 10:47:30+05:30
210,Suriname,SUR,SR,597,SRD,$,4.00000000,-56.00000000,https://cdn.jsdelivr.net/gh/hampusborgos/country-flags@main/svg/sr.svg,America/Paramaribo,UTC-03:00,2022-06-16 09:53:55+05:30,2022-07-07 10:47:30+05:30
211,Svalbard And Jan Mayen Islands,SJM,SJ,47,NOK,kr,78.00000000,20.00000000,https://cdn.jsdelivr.net/gh/hampusborgos/country-flags@main/svg/sj.svg,Arctic/Longyearbyen,UTC+01:00,2022-06-16 09:53:55+05:30,2022-07-07 10:47:30+05:30
212,Swaziland,SWZ,SZ,268,SZL,SZL,-26.50000000,31.50000000,https://cdn.jsdelivr.net/gh/hampusborgos/country-flags@main/svg/sz.svg,Africa/Mbabane,UTC+02:00,2022-06-16 09:53:55+05:30,2022-07-07 10:47:30+05:30
213,Sweden,SWE,SE,46,SEK,kr,62.00000000,15.00000000,https://cdn.jsdelivr.net/gh/hampusborgos/country-flags@main/svg/se.svg,Europe/Stockholm,UTC+01:00,2022-06-16 09:53:55+05:30,2022-07-07 10:47:30+05:30
214,Switzerland,CHE,CH,41,CHF,CHF,47.00000000,8.00000000,https://cdn.jsdelivr.net/gh/hampusborgos/country-flags@main/svg/ch.svg,Europe/Zurich,UTC+01:00,2022-06-16 09:53:55+05:30,2022-07-07 10:47:30+05:30
215,Syria,SYR,SY,963,SYP,£,35.00000000,38.00000000,https://cdn.jsdelivr.net/gh/hampusborgos/country-flags@main/svg/sy.svg,Asia/Damascus,UTC+02:00,2022-06-16 09:53:55+05:30,2022-07-07 10:47:30+05:30
216,Taiwan,TWN,TW,886,TWD,NT$,23.50000000,99.99999999,https://cdn.jsdelivr.net/gh/hampusborgos/country-flags@main/svg/tw.svg,Asia/Taipei,UTC+08:00,2022-06-16 09:53:55+05:30,2022-07-07 10:47:30+05:30
217,Tajikistan,TJK,TJ,992,TJS,TJS,39.00000000,71.00000000,https://cdn.jsdelivr.net/gh/hampusborgos/country-flags@main/svg/tj.svg,Asia/Dushanbe,UTC+05:00,2022-06-16 09:53:55+05:30,2022-07-07 10:47:30+05:30
218,Tanzania,TZA,TZ,255,TZS,TZS,-6.00000000,35.00000000,https://cdn.jsdelivr.net/gh/hampusborgos/country-flags@main/svg/tz.svg,Africa/Dar_es_Salaam,UTC+03:00,2022-06-16 09:53:55+05:30,2022-07-07 10:47:30+05:30
219,Thailand,THA,TH,66,THB,฿,15.00000000,99.99999999,https://cdn.jsdelivr.net/gh/hampusborgos/country-flags@main/svg/th.svg,Asia/Bangkok,UTC+07:00,2022-06-16 09:53:55+05:30,2022-07-07 10:47:30+05:30
220,Togo,TGO,TG,228,XOF,CFA,8.00000000,1.16666666,https://cdn.jsdelivr.net/gh/hampusborgos/country-flags@main/svg/tg.svg,Africa/Lome,UTC±00,2022-06-16 09:53:55+05:30,2022-07-07 10:47:30+05:30
221,Tokelau,TKL,TK,690,NZD,NZ$,-9.00000000,-99.99999999,https://cdn.jsdelivr.net/gh/hampusborgos/country-flags@main/svg/tk.svg,Pacific/Fakaofo,UTC+13:00,2022-06-16 09:53:55+05:30,2022-07-07 10:47:30+05:30
222,Tonga,TON,TO,676,TOP,T$,-20.00000000,-99.99999999,https://cdn.jsdelivr.net/gh/hampusborgos/country-flags@main/svg/to.svg,Pacific/Tongatapu,UTC+13:00,2022-06-16 09:53:55+05:30,2022-07-07 10:47:30+05:30
223,Trinidad And Tobago,TTO,TT,1,TTD,TT$,11.00000000,-61.00000000,https://cdn.jsdelivr.net/gh/hampusborgos/country-flags@main/svg/tt.svg,America/Port_of_Spain,UTC-04:00,2022-06-16 09:53:55+05:30,2022-07-07 10:47:30+05:30
224,Tunisia,TUN,TN,216,TND,د.ت,34.00000000,9.00000000,https://cdn.jsdelivr.net/gh/hampusborgos/country-flags@main/svg/tn.svg,Africa/Tunis,UTC+01:00,2022-06-16 09:53:55+05:30,2022-07-07 10:47:30+05:30
225,Turkey,TUR,TR,90,TRY,₤,39.00000000,35.00000000,https://cdn.jsdelivr.net/gh/hampusborgos/country-flags@main/svg/tr.svg,Europe/Istanbul,UTC+03:00,2022-06-16 09:53:55+05:30,2022-07-07 10:47:30+05:30
226,Turkmenistan,TKM,TM,993,TMT,m,40.00000000,60.00000000,https://cdn.jsdelivr.net/gh/hampusborgos/country-flags@main/svg/tm.svg,Asia/Ashgabat,UTC+05:00,2022-06-16 09:53:55+05:30,2022-07-07 10:47:30+05:30
227,Turks And Caicos Islands,TCA,TC,1,USD,$,21.75000000,-71.58333333,https://cdn.jsdelivr.net/gh/hampusborgos/country-flags@main/svg/tc.svg,America/Grand_Turk,UTC-05:00,2022-06-16 09:53:55+05:30,2022-07-07 10:47:30+05:30
228,Tuvalu,TUV,TV,688,AUD,$,-8.00000000,99.99999999,https://cdn.jsdelivr.net/gh/hampusborgos/country-flags@main/svg/tv.svg,Pacific/Funafuti,UTC+12:00,2022-06-16 09:53:55+05:30,2022-07-07 10:47:30+05:30
229,Uganda,UGA,UG,256,UGX,USh,1.00000000,32.00000000,https://cdn.jsdelivr.net/gh/hampusborgos/country-flags@main/svg/ug.svg,Africa/Kampala,UTC+03:00,2022-06-16 09:53:55+05:30,2022-07-07 10:47:30+05:30
230,Ukraine,UKR,UA,380,UAH,₴,49.00000000,32.00000000,https://cdn.jsdelivr.net/gh/hampusborgos/country-flags@main/svg/ua.svg,Europe/Kiev,UTC+02:00,2022-06-16 09:53:55+05:30,2022-07-07 10:47:30+05:30
231,United Arab Emirates,ARE,AE,971,AED,د.إ,24.00000000,54.00000000,https://cdn.jsdelivr.net/gh/hampusborgos/country-flags@main/svg/ae.svg,Asia/Dubai,UTC+04:00,2022-06-16 09:53:55+05:30,2022-07-07 10:47:30+05:30
232,United Kingdom,GBR,GB,44,GBP,£,54.00000000,-2.00000000,https://cdn.jsdelivr.net/gh/hampusborgos/country-flags@main/svg/gb.svg,Europe/London,UTC±00,2022-06-16 09:53:55+05:30,2022-07-07 10:47:30+05:30
233,United States,USA,US,1,USD,$,38.00000000,-97.00000000,https://cdn.jsdelivr.net/gh/hampusborgos/country-flags@main/svg/us.svg,America/Adak,UTC-10:00,2022-06-16 09:53:55+05:30,2022-07-07 10:47:30+05:30
234,United States Minor Outlying Islands,UMI,UM,1,USD,$,0.00000000,0.00000000,https://cdn.jsdelivr.net/gh/hampusborgos/country-flags@main/svg/um.svg,Pacific/Midway,UTC-11:00,2022-06-16 09:53:55+05:30,2022-07-07 10:47:30+05:30
235,Uruguay,URY,UY,598,UYU,$U,-33.00000000,-56.00000000,https://cdn.jsdelivr.net/gh/hampusborgos/country-flags@main/svg/uy.svg,America/Montevideo,UTC-03:00,2022-06-16 09:53:55+05:30,2022-07-07 10:47:30+05:30
236,Uzbekistan,UZB,UZ,998,UZS,лв,41.00000000,64.00000000,https://cdn.jsdelivr.net/gh/hampusborgos/country-flags@main/svg/uz.svg,Asia/Samarkand,UTC+05:00,2022-06-16 09:53:55+05:30,2022-07-07 10:47:30+05:30
237,Vanuatu,VUT,VU,678,VUV,VT‎,-16.00000000,99.99999999,https://cdn.jsdelivr.net/gh/hampusborgos/country-flags@main/svg/vu.svg,Pacific/Efate,UTC+11:00,2022-06-16 09:53:55+05:30,2022-07-07 10:47:30+05:30
238,Vatican City State (Holy See),VAT,VA,379,EUR,€,41.90000000,12.45000000,https://cdn.jsdelivr.net/gh/hampusborgos/country-flags@main/svg/va.svg,Europe/Vatican,UTC+01:00,2022-06-16 09:53:55+05:30,2022-07-07 10:47:30+05:30
239,Venezuela,VEN,VE,58,VEF,Bs,8.00000000,-66.00000000,https://cdn.jsdelivr.net/gh/hampusborgos/country-flags@main/svg/ve.svg,America/Caracas,UTC-04:00,2022-06-16 09:53:55+05:30,2022-07-07 10:47:30+05:30
240,Vietnam,VNM,VN,84,VND,₫,16.16666666,99.99999999,https://cdn.jsdelivr.net/gh/hampusborgos/country-flags@main/svg/vn.svg,Asia/Ho_Chi_Minh,UTC+07:00,2022-06-16 09:53:55+05:30,2022-07-07 10:47:30+05:30
241,Virgin Islands (British),VGB,VG,1,USD,$,18.43138300,-64.62305000,https://cdn.jsdelivr.net/gh/hampusborgos/country-flags@main/svg/vg.svg,America/Tortola,UTC-04:00,2022-06-16 09:53:55+05:30,2022-07-07 10:47:30+05:30
242,Virgin Islands (US),VIR,VI,1,USD,$,18.34000000,-64.93000000,https://cdn.jsdelivr.net/gh/hampusborgos/country-flags@main/svg/vi.svg,America/St_Thomas,UTC-04:00,2022-06-16 09:53:55+05:30,2022-07-07 10:47:30+05:30
243,Wallis And Futuna Islands,WLF,WF,681,XPF,F,-13.30000000,-99.99999999,https://cdn.jsdelivr.net/gh/hampusborgos/country-flags@main/svg/wf.svg,Pacific/Wallis,UTC+12:00,2022-06-16 09:53:55+05:30,2022-07-07 10:47:30+05:30
244,Western Sahara,ESH,EH,212,MAD,.د.م,24.50000000,-13.00000000,https://cdn.jsdelivr.net/gh/hampusborgos/country-flags@main/svg/eh.svg,Africa/El_Aaiun,UTC+01:00,2022-06-16 09:53:55+05:30,2022-07-07 10:47:30+05:30
245,Yemen,YEM,YE,967,YER,﷼,15.00000000,48.00000000,https://cdn.jsdelivr.net/gh/hampusborgos/country-flags@main/svg/ye.svg,Asia/Aden,UTC+03:00,2022-06-16 09:53:55+05:30,2022-07-07 10:47:30+05:30
246,Zambia,ZMB,ZM,260,ZMW,ZK,-15.00000000,30.00000000,https://cdn.jsdelivr.net/gh/hampusborgos/country-flags@main/svg/zm.svg,Africa/Lusaka,UTC+02:00,2022-06-16 09:53:55+05:30,2022-07-07 10:47:30+05:30
247,Zimbabwe,ZWE,ZW,263,ZWL,Z$,-20.00000000,30.00000000,https://cdn.jsdelivr.net/gh/hampusborgos/country-flags@main/svg/zw.svg,Africa/Harare,UTC+02:00,2022-06-16 09:53:55+05:30,2022-07-07 10:47:30+05:30
248,Kosovo,XKX,XK,383,EUR,€,42.56129090,20.34030350,https://cdn.jsdelivr.net/gh/hampusborgos/country-flags@main/svg/xk.svg,Europe/Belgrade,UTC+01:00,2022-06-16 09:53:55+05:30,2022-07-07 10:47:29+05:30
249,Curaçao,CUW,CW,599,ANG,ƒ,12.11666700,-68.93333300,https://cdn.jsdelivr.net/gh/hampusborgos/country-flags@main/svg/cw.svg,America/Curacao,UTC-04:00,2022-06-16 09:53:55+05:30,2022-07-07 10:47:28+05:30
250,Sint Maarten (Dutch part),SXM,SX,1721,ANG,ƒ,18.03333300,-63.05000000,https://cdn.jsdelivr.net/gh/hampusborgos/country-flags@main/svg/sx.svg,America/Anguilla,UTC-04:00,2022-06-16 09:53:55+05:30,2022-07-07 10:47:30+05:30
